[{"place_id":"ChIJP3Sa8ziYEmsRUKgyFmh9AQM","latitude":-33.8688197,"longitude":151.20929550000005,"address":"Sydney NSW, Australia","_id":"f85343474aff49688d06c6da0a5fa455"},{"place_id":"ChIJOfz4zAuWEmsR4K4yFmh9AQU","latitude":-33.894444,"longitude":150.9375,"address":"Cabramatta NSW 2166, Australia","_id":"0780955f723942958ba893ec0469ded2"},{"place_id":"ChIJt2BdK0cakWsRcK_e81qjAgM","latitude":-28.016667,"longitude":153.39999999999998,"address":"Gold Coast QLD, Australia","_id":"9e4d480cdaa04efbbe4fee3bc7a29c6d"},{"place_id":"ChIJdR1cFGoYkWsRsNfe81qjAgU","latitude":-27.938889,"longitude":153.13,"address":"Boyland QLD 4275, Australia","_id":"93cc5738d7994c848e8f07083d8de3d6"},{"place_id":"ChIJPXNH22yWMioR0FXfNbXwBAM","latitude":-31.9505269,"longitude":115.86045719999993,"address":"Perth WA, Australia","_id":"1c3e279e703f43fca46279a592557942"},{"place_id":"ChIJ59Fz1dv41WsRsP4gf_HuAAU","latitude":-19.2589635,"longitude":146.81694830000004,"address":"Townsville City QLD 4810, Australia","_id":"c16b3589d8ea424b8d8d67e2371c986e"},{"place_id":"ChIJP3Sa8ziYEmsRUKgyFmh9AQM","latitude":-33.8688197,"longitude":151.20929550000005,"address":"Sydney NSW, Australia","_id":"be75fc71e47a4788bab9077bc0a4c2cf"},{"place_id":"ChIJ59Fz1dv41WsRsP4gf_HuAAU","latitude":-19.2589635,"longitude":146.81694830000004,"address":"Townsville City QLD 4810, Australia","_id":"17ec9170e15e4a3fbb10865e70375ca9"},{"place_id":"ChIJP3Sa8ziYEmsRUKgyFmh9AQM","latitude":-33.8688197,"longitude":151.20929550000005,"address":"Sydney NSW, Australia","_id":"ae3510b0640d42d69c0920d07ab817ae"}]