[{"place_id":"ChIJOQiX_QHgtYkRJZDYlQUSnp0","latitude":39.0283907,"longitude":-77.92824969999998,"address":"1 Appalachian Trail, Paris, VA 20130, USA","_id":"127871b2f9564642b7be763e62bd6c4b"},{"place_id":"ChIJA2KuxgTG1DsRz5wfRvJpWMk","latitude":21.21337669999999,"longitude":79.19543390000001,"address":"1, NH 44, Shiv Panchayat Nagar, Kamptee, Maharashtra 441001, India","_id":"6c5620d7df1a40ee81138b5083909aaa"},{"place_id":"ChIJ77_PXLnqwokRBAnAcJMS7l0","latitude":41.0765687,"longitude":-73.8583145,"address":"3 Broadway, Tarrytown, NY 10591, USA","_id":"9fcbf13067634316b2c295e79854e7f2"},{"place_id":"ChIJoS1izf2hyzsRZ8ZHr8pgRqY","latitude":17.335963,"longitude":78.572138,"address":"1, NH65, Hill Colony, Vanasthalipuram, Hyderabad, Telangana 500070, India","_id":"1ebe1ab9b09c4ce488fef0e750595eab"},{"place_id":"ChIJB_0VKxLvZzkRFaOFsGRvt1U","latitude":24.54562229999999,"longitude":73.71532730000001,"address":"1, NH 48, Krishna Colony, Titrdi, Sector 9, Udaipur, Rajasthan 313002, India","_id":"b7b54445b67e454c9ea60e72165d4f8f"},{"place_id":"ChIJ04QUpzIbdkgRSH-yo5FQGsk","latitude":51.5160563,"longitude":-0.12714849999997568,"address":"1 St Giles High St, London WC2H 8AG, UK","_id":"43e15f379d2e4eb5af1e41339ebf6118"},{"place_id":"ChIJ4YsBkB5NFmsRQeh021B29es","latitude":-35.30581919999999,"longitude":149.13261080000007,"address":"1 National Circuit, Barton ACT 2600, Australia","_id":"66293dfc16414a808eb6f7ad499dcce8"},{"place_id":"ChIJoS1izf2hyzsRZ8ZHr8pgRqY","latitude":17.335963,"longitude":78.572138,"address":"1, NH65, Hill Colony, Vanasthalipuram, Hyderabad, Telangana 500070, India","_id":"506b092ff29a4cf58098c089ae381f21"},{"place_id":"ChIJ4YsBkB5NFmsRQeh021B29es","latitude":-35.30581919999999,"longitude":149.13261080000007,"address":"1 National Circuit, Barton ACT 2600, Australia","_id":"10600a3274a7424fbb30f93d2884238c"}]