[{"place_id":"ChIJP3Sa8ziYEmsRUKgyFmh9AQM","latitude":-33.8688197,"longitude":151.20929550000005,"address":"Sydney NSW, Australia","_id":"f85343474aff49688d06c6da0a5fa455"},{"place_id":"ChIJOfz4zAuWEmsR4K4yFmh9AQU","latitude":-33.894444,"longitude":150.9375,"address":"Cabramatta NSW 2166, Australia","_id":"0780955f723942958ba893ec0469ded2"},{"place_id":"ChIJt2BdK0cakWsRcK_e81qjAgM","latitude":-28.016667,"longitude":153.39999999999998,"address":"Gold Coast QLD, Australia","_id":"9e4d480cdaa04efbbe4fee3bc7a29c6d"},{"place_id":"ChIJdR1cFGoYkWsRsNfe81qjAgU","latitude":-27.938889,"longitude":153.13,"address":"Boyland QLD 4275, Australia","_id":"93cc5738d7994c848e8f07083d8de3d6"},{"place_id":"ChIJPXNH22yWMioR0FXfNbXwBAM","latitude":-31.9505269,"longitude":115.86045719999993,"address":"Perth WA, Australia","_id":"1c3e279e703f43fca46279a592557942"},{"place_id":"ChIJ59Fz1dv41WsRsP4gf_HuAAU","latitude":-19.2589635,"longitude":146.81694830000004,"address":"Townsville City QLD 4810, Australia","_id":"c16b3589d8ea424b8d8d67e2371c986e"},{"place_id":"ChIJP3Sa8ziYEmsRUKgyFmh9AQM","latitude":-33.8688197,"longitude":151.20929550000005,"address":"Sydney NSW, Australia","_id":"be75fc71e47a4788bab9077bc0a4c2cf"},{"place_id":"ChIJ59Fz1dv41WsRsP4gf_HuAAU","latitude":-19.2589635,"longitude":146.81694830000004,"address":"Townsville City QLD 4810, Australia","_id":"17ec9170e15e4a3fbb10865e70375ca9"},{"place_id":"ChIJP3Sa8ziYEmsRUKgyFmh9AQM","latitude":-33.8688197,"longitude":151.20929550000005,"address":"Sydney NSW, Australia","_id":"ae3510b0640d42d69c0920d07ab817ae"},{"place_id":"ChIJbR9t3WRsE2sRjtO6ru7Uep8","latitude":-34.6738221,"longitude":150.84437060000005,"address":"Kiama NSW 2533, Australia","_id":"fb31359ace024d5e9cfb19a5d1fd8215"},{"place_id":"ChIJ2VshVIlxE2sRYOMyFmh9AQU","latitude":-34.65,"longitude":150.78333299999997,"address":"Jamberoo NSW 2533, Australia","_id":"2a839dd0c7c843f9bdc47d432a3a2dfa"},{"place_id":"ChIJ7_goru17E2sRMOEyFmh9AQU","latitude":-34.775278,"longitude":150.693889,"address":"Berry NSW 2535, Australia","_id":"5481e0fe5f854bcd86226c8f8e619a15"},{"place_id":"ChIJNyEAsAOAFGsRIOUyFmh9AQU","latitude":-34.883333,"longitude":150.60000000000002,"address":"Nowra NSW 2541, Australia","_id":"1ad3acb6d92f4ab199ea8df2b374dcb9"},{"place_id":"ChIJKaDKxOSuFmsRkeGjFhE5Sss","latitude":-34.7479181,"longitude":149.72774470000002,"address":"Goulburn NSW 2580, Australia","_id":"0e6c32a838e2483eaf94129525dbd9a4"},{"place_id":"ChIJk3fE-iscMisRcIQkKqgXAgQ","latitude":-23.69804199999999,"longitude":133.8807471,"address":"Alice Springs NT, Australia","_id":"753b654a9202422a82e58ce0206c4440"},{"place_id":"ChIJI1JibStsIysRIV_Fm03NqEM","latitude":-25.3444277,"longitude":131.03688220000004,"address":"Uluru, Petermann NT 0872, Australia","_id":"2d17f80b50604b9999ddb46fa9edd64d"},{"place_id":"ChIJm5ZEJHoDKysRoEIlKqgXAgQ","latitude":-25.5815982,"longitude":134.57769159999998,"address":"Finke NT 0872, Australia","_id":"c6bd60f5d3e541e4b5fe0fb20bd20d73"},{"place_id":"ChIJaYm8iRu8EmsRAK0yFmh9AQU","latitude":-33.91817,"longitude":151.03496999999993,"address":"Bankstown NSW 2200, Australia","_id":"f88da5af5b914308a7778dd7aa84d485"},{"place_id":"ChIJP3Sa8ziYEmsRUKgyFmh9AQM","latitude":-33.8688197,"longitude":151.20929550000005,"address":"Sydney NSW, Australia","_id":"d51aea3853db4cfb8036b012331f8db0"},{"place_id":"ChIJz78vQJiiE2sRkCREkLQJBgU","latitude":-34.479167,"longitude":150.41805599999998,"address":"Bowral NSW 2576, Australia","_id":"73c38ec629244810826575462d5c1068"},{"place_id":"ChIJcQ2a1GbMcmsRoNkyFmh9AQU","latitude":-33.426667,"longitude":151.34166700000003,"address":"Gosford NSW 2250, Australia","_id":"14c381b4bcf5479eaec2cf663e8cd9a9"},{"place_id":"ChIJ6URkAsD7FmsREN5DkLQJBgQ","latitude":-35.0291599,"longitude":149.26644190000002,"address":"Gundaroo NSW 2620, Australia","_id":"faa8ae197fdd4c8ca7f03751cb7f68b7"},{"place_id":"ChIJP3Sa8ziYEmsRUKgyFmh9AQM","latitude":-33.8688197,"longitude":151.20929550000005,"address":"Sydney NSW, Australia","_id":"8280e34fbee4424e9cc99b9347500c30"},{"place_id":"ChIJp7qqLxvPsGoRYMSOYlQ2AwU","latitude":-34.9453327,"longitude":138.59254350000003,"address":"Wayville SA 5034, Australia","_id":"cfb75cfa638c48cba59a3b5a0506dff3"},{"place_id":"ChIJP3Sa8ziYEmsRUKgyFmh9AQM","latitude":-33.8688197,"longitude":151.20929550000005,"address":"Sydney NSW, Australia","_id":"9a5abf2938354eafa76404a592205526"},{"place_id":"ChIJOfz4zAuWEmsR4K4yFmh9AQU","latitude":-33.894444,"longitude":150.9375,"address":"Cabramatta NSW 2166, Australia","_id":"92399a5d2fe940968fc027628936ee71"},{"place_id":"ChIJP3Sa8ziYEmsRUKgyFmh9AQM","latitude":-33.8688197,"longitude":151.20929550000005,"address":"Sydney NSW, Australia","_id":"b93a2902eb8c458b8624116f1d77db89"}]