[{"place_id":"ChIJOQiX_QHgtYkRJZDYlQUSnp0","latitude":39.0283907,"longitude":-77.92824969999998,"address":"1 Appalachian Trail, Paris, VA 20130, USA","_id":"127871b2f9564642b7be763e62bd6c4b"},{"place_id":"ChIJA2KuxgTG1DsRz5wfRvJpWMk","latitude":21.21337669999999,"longitude":79.19543390000001,"address":"1, NH 44, Shiv Panchayat Nagar, Kamptee, Maharashtra 441001, India","_id":"6c5620d7df1a40ee81138b5083909aaa"},{"place_id":"ChIJ77_PXLnqwokRBAnAcJMS7l0","latitude":41.0765687,"longitude":-73.8583145,"address":"3 Broadway, Tarrytown, NY 10591, USA","_id":"9fcbf13067634316b2c295e79854e7f2"},{"place_id":"ChIJoS1izf2hyzsRZ8ZHr8pgRqY","latitude":17.335963,"longitude":78.572138,"address":"1, NH65, Hill Colony, Vanasthalipuram, Hyderabad, Telangana 500070, India","_id":"1ebe1ab9b09c4ce488fef0e750595eab"},{"place_id":"ChIJB_0VKxLvZzkRFaOFsGRvt1U","latitude":24.54562229999999,"longitude":73.71532730000001,"address":"1, NH 48, Krishna Colony, Titrdi, Sector 9, Udaipur, Rajasthan 313002, India","_id":"b7b54445b67e454c9ea60e72165d4f8f"},{"place_id":"ChIJ04QUpzIbdkgRSH-yo5FQGsk","latitude":51.5160563,"longitude":-0.12714849999997568,"address":"1 St Giles High St, London WC2H 8AG, UK","_id":"43e15f379d2e4eb5af1e41339ebf6118"},{"place_id":"ChIJ4YsBkB5NFmsRQeh021B29es","latitude":-35.30581919999999,"longitude":149.13261080000007,"address":"1 National Circuit, Barton ACT 2600, Australia","_id":"66293dfc16414a808eb6f7ad499dcce8"},{"place_id":"ChIJoS1izf2hyzsRZ8ZHr8pgRqY","latitude":17.335963,"longitude":78.572138,"address":"1, NH65, Hill Colony, Vanasthalipuram, Hyderabad, Telangana 500070, India","_id":"506b092ff29a4cf58098c089ae381f21"},{"place_id":"ChIJ4YsBkB5NFmsRQeh021B29es","latitude":-35.30581919999999,"longitude":149.13261080000007,"address":"1 National Circuit, Barton ACT 2600, Australia","_id":"10600a3274a7424fbb30f93d2884238c"},{"place_id":"ChIJ4YsBkB5NFmsRQeh021B29es","latitude":-35.30581919999999,"longitude":149.13261080000007,"address":"1 National Circuit, Barton ACT 2600, Australia","_id":"8bbe5a0030024637a49ea43cad270fea"},{"place_id":"ChIJ_67HJqhZwokRDy_dNeg8wao","latitude":40.7468334,"longitude":-73.98319479999998,"address":"165 Madison Ave, New York, NY 10016, USA","_id":"f961dfcb1d9d41619e5fee8d70edbc62"},{"place_id":"ChIJdyE6vV7kDDkRYiwQWDXawQ8","latitude":28.581677,"longitude":77.31388900000002,"address":"1, Captain Vijyant Thapar Marg, Naya Bans, Naya Bans Village, Sector 15, Noida, Uttar Pradesh 201301, India","_id":"1bf94e09ee57422aa91e50937454e814"},{"place_id":"ChIJq4z3_73QcmsRiw40cgSFqfU","latitude":-33.242378,"longitude":151.49613390000002,"address":"1W Pacific Hwy, Charmhaven NSW 2263, Australia","_id":"20b4f12bdc7142d4af921fb6091f41c8"},{"place_id":"ChIJIbMUBju35zsRq_Pho8UI58A","latitude":19.206936,"longitude":72.86602100000005,"address":"1, Western Express Hwy, Nabard Nagar, Saraf Chaudhary Nagar, Kandivali East, Mumbai, Maharashtra 400101, India","_id":"d6150224094f4a5c8c39c8baf7cfa619"},{"place_id":"ChIJBzDObRjIt4kRw3RomChsZtU","latitude":38.93513619999999,"longitude":-77.03254909999998,"address":"3515A 14th St NW, Washington, DC 20010, USA","_id":"ee6f39b312ee4c2691bff9a0dda3e2bb"},{"place_id":"ChIJifvsxZBZwokRExqxLYo3o8I","latitude":40.73204119999999,"longitude":-73.99693709999997,"address":"2 5th Ave, New York, NY 10011, USA","_id":"d2a927379fec45d49dcfb63c4e9a6795"},{"place_id":"ChIJmbAlxp8FdkgRR64FTW7jnVM","latitude":51.482497,"longitude":-0.13478829999996833,"address":"1 Battersea Park Rd, London SW11 3BN, UK","_id":"ce51cb8efe6c41d3b84816dc65b08e5c"},{"place_id":"ChIJmbAlxp8FdkgRR64FTW7jnVM","latitude":51.482497,"longitude":-0.13478829999996833,"address":"1 Battersea Park Rd, London SW11 3BN, UK","_id":"9d615d99f98744c6ab88dd20713407d6"},{"place_id":"ChIJ77_PXLnqwokRBAnAcJMS7l0","latitude":41.0765687,"longitude":-73.8583145,"address":"3 Broadway, Tarrytown, NY 10591, USA","_id":"98b17e260f4347e3b33d646c4b1a6432"},{"place_id":"Ei0yIENodWN1bGJhIENyZXMsIEdpcmFsYW5nIEFDVCAyNjE3LCBBdXN0cmFsaWEiMBIuChQKEgm3C5MP26wXaxHaj7SMFWP7yxACKhQKEgkjV2HV0KwXaxGJ49g-_DRpgA","latitude":-35.2091604,"longitude":149.08902839999996,"address":"2 Chuculba Cres, Giralang ACT 2617, Australia","_id":"218c7ad7610e48dba7bc0e31df4112a2"},{"place_id":"ChIJr-4Fx9GsF2sRYFRpp27qAAU","latitude":-35.211944,"longitude":149.097222,"address":"Giralang ACT 2617, Australia","_id":"a4542fad148c48f8a08f368e286f6e67"},{"place_id":"ChIJG1_MFNRSFmsRcFRpp27qAAU","latitude":-35.221,"longitude":149.106,"address":"Kaleen ACT 2617, Australia","_id":"c11dba89d43c423690760dbdb744c4cf"},{"place_id":"ChIJwX5VbQNNFmsRwFZpp27qAAU","latitude":-35.307778,"longitude":149.13444400000003,"address":"Barton ACT 2600, Australia","_id":"fe0b9c27ab0e4edda911386018c1f01e"},{"place_id":"ChIJo9lkBj-562sRwNcgf_HuAAQ","latitude":-24.8669736,"longitude":152.35097139999993,"address":"Bundaberg QLD 4670, Australia","_id":"b36be20ac50f4529b9a2c00f19907ee9"},{"place_id":"ChIJpU8cWR1n62sRsBEhf_HuAAU","latitude":-25.5232627,"longitude":152.69706359999998,"address":"Maryborough QLD 4650, Australia","_id":"61b82c99570a43fbbff97ca9b3361e7b"}]